{"type": "FeatureCollection", "features": [{"type": "Feature", "geometry": {"type": "Point", "coordinates": [-1.6268121, 54.98376709999999]}, "properties": {"Name": "Spital Tongues Community Centre", "Address": "19 Morpeth St, Spital Tongues, Newcastle upon Tyne NE2 4AS, United Kingdom"}}, {"type": "Feature", "geometry": {"type": "Point", "coordinates": [-1.5732472, 54.9877456]}, "properties": {"Name": "Heaton Community Centre", "Address": "Heaton Adult Education Centre, Trewhitt Rd, Newcastle upon Tyne NE6 5DY, United Kingdom"}}, {"type": "Feature", "geometry": {"type": "Point", "coordinates": [-1.5446431, 54.9849989]}, "properties": {"Name": "Ray Gray Community Centre", "Address": "Stotts Rd, Newcastle upon Tyne NE6 4UH, United Kingdom"}}, {"type": "Feature", "geometry": {"type": "Point", "coordinates": [-1.5921266, 54.9786076]}, "properties": {"Name": "Ouseburn community centre", "Address": "Ouseburn Community Centre, Mowbray St, upon Tyne NE6 5PA, United Kingdom"}}, {"type": "Feature", "geometry": {"type": "Point", "coordinates": [-1.6298372, 54.9757695]}, "properties": {"Name": "Newcastle Bangladeshi Community Centre", "Address": "246-248 Elswick Rd, Newcastle upon Tyne NE4 6SN, United Kingdom"}}, {"type": "Feature", "geometry": {"type": "Point", "coordinates": [-1.644355, 55.0300975]}, "properties": {"Name": "Great Park Community Centre", "Address": "Roseden Wy., Newcastle upon Tyne NE13 9BD, United Kingdom"}}, {"type": "Feature", "geometry": {"type": "Point", "coordinates": [-1.6348239, 54.9679058]}, "properties": {"Name": "Centre West", "Address": "28 Hawthorn Terrace, Newcastle upon Tyne NE4 6RJ, United Kingdom"}}, {"type": "Feature", "geometry": {"type": "Point", "coordinates": [-1.6282121, 55.0265271]}, "properties": {"Name": "St Aidan's Community Centre", "Address": "Princes Rd, Newcastle upon Tyne NE3 5TT, United Kingdom"}}, {"type": "Feature", "geometry": {"type": "Point", "coordinates": [-1.6656391, 55.0148533]}, "properties": {"Name": "Kingston Park Community Centre", "Address": "Kingston Park, 102 Brunton Ln, Newcastle upon Tyne NE3 2SW, United Kingdom"}}, {"type": "Feature", "geometry": {"type": "Point", "coordinates": [-1.6388477, 54.9797794]}, "properties": {"Name": "Nunsmoor Centre", "Address": "5AH, Studley Terrace, Newcastle upon Tyne, United Kingdom"}}, {"type": "Feature", "geometry": {"type": "Point", "coordinates": [-1.7095891, 54.9915777]}, "properties": {"Name": "West Denton Community Centre", "Address": "Hillhead Rd, West Denton, Newcastle upon Tyne NE5 1DN, United Kingdom"}}, {"type": "Feature", "geometry": {"type": "Point", "coordinates": [-1.6472779, 55.0143127]}, "properties": {"Name": "Fawdon Community Centre", "Address": "Fawdon Park Rd, Fawdon, Newcastle upon Tyne NE3 2PL, United Kingdom"}}, {"type": "Feature", "geometry": {"type": "Point", "coordinates": [-1.5529502, 54.9629646]}, "properties": {"Name": "Pottery Bank Community Centre", "Address": "Yelverton Cres, Walker, Newcastle upon Tyne NE6 3SW, United Kingdom"}}, {"type": "Feature", "geometry": {"type": "Point", "coordinates": [-1.6323812, 55.0099928]}, "properties": {"Name": "Coxlodge Community Centre", "Address": "Coxlodge Community Centre, Jubilee Rd, Gosforth, Newcastle upon Tyne NE3 3UR, United Kingdom"}}, {"type": "Feature", "geometry": {"type": "Point", "coordinates": [-1.7041553, 55.0018986]}, "properties": {"Name": "Westerhope Community Centre", "Address": "WCA, Hillhead Rd, Newcastle upon Tyne NE5 1NE, United Kingdom"}}, {"type": "Feature", "geometry": {"type": "Point", "coordinates": [-1.5597674, 54.9745339]}, "properties": {"Name": "St. Martin's Centre", "Address": "Roman Ave, Newcastle upon Tyne NE6 2RJ, United Kingdom"}}, {"type": "Feature", "geometry": {"type": "Point", "coordinates": [-1.6617994, 54.9798742]}, "properties": {"Name": "Fenham Assocation Of Residents", "Address": "THE FAR COMMUNITY CENTRE, 40-46 Acanthus Ave, Fenham, Newcastle upon Tyne NE4 9YD, United Kingdom"}}, {"type": "Feature", "geometry": {"type": "Point", "coordinates": [-1.6835856, 54.9859435]}, "properties": {"Name": "Denton Burn Community Association", "Address": "Slatyford Ln, Newcastle upon Tyne NE5 2UQ, United Kingdom"}}, {"type": "Feature", "geometry": {"type": "Point", "coordinates": [-1.6317366, 54.970759]}, "properties": {"Name": "Turkish Community Center", "Address": "40 Elswick Rd, Newcastle upon Tyne NE4 6JE, United Kingdom"}}, {"type": "Feature", "geometry": {"type": "Point", "coordinates": [-1.5796709, 55.0172344]}, "properties": {"Name": "Benton Community Center", "Address": "14 Edenbridge Cres, Newcastle upon Tyne NE12 8EP, United Kingdom"}}]}